{
  "input": {
    "address_components": {
      "number": "4986",
      "street": "Zuni",
      "suffix": "St",
      "formatted_street": "Zuni St",
      "city": "Denver",
      "state": "CO",
      "zip": "80221",
      "country": "US"
    },
    "formatted_address": "4986 Zuni St, Denver, CO 80221"
  },
  "results": [
    {
      "address_components": {
        "number": "4986",
        "street": "Zuni",
        "suffix": "St",
        "formatted_street": "Zuni St",
        "city": "Denver",
        "county": "Denver County",
        "state": "CO",
        "zip": "80221",
        "country": "US"
      },
      "formatted_address": "4986 Zuni St, Denver, CO 80221",
      "location": {
        "lat": 39.78721,
        "lng": -105.015686
      },
      "accuracy": 1,
      "accuracy_type": "range_interpolation",
      "source": "TIGER/Line® dataset from the US Census Bureau",
      "fields": {
        "census": {
          "2010": {
            "census_year": 2010,
            "state_fips": "08",
            "county_fips": "08031",
            "tract_code": "000201",
            "block_code": "2009",
            "block_group": "2",
            "full_fips": "080310002012009",
            "place": {
              "name": "Denver",
              "fips": "0820000"
            },
            "metro_micro_statistical_area": {
              "name": "Denver-Aurora-Broomfield, CO",
              "area_code": "19740",
              "type": "metropolitan"
            },
            "combined_statistical_area": {
              "name": "Denver-Aurora-Boulder, CO",
              "area_code": "08216"
            },
            "metropolitan_division": null,
            "source": "US Census Bureau"
          }
        }
      }
    },
    {
      "address_components": {
        "number": "4986",
        "predirectional": "N",
        "street": "Zuni",
        "suffix": "St",
        "formatted_street": "N Zuni St",
        "city": "Denver",
        "county": "Denver County",
        "state": "CO",
        "zip": "80221",
        "country": "US"
      },
      "formatted_address": "4986 N Zuni St, Denver, CO 80221",
      "location": {
        "lat": 39.787141,
        "lng": -105.015517
      },
      "accuracy": 0.9,
      "accuracy_type": "rooftop",
      "source": "Denver",
      "fields": {
        "census": {
          "2010": {
            "census_year": 2010,
            "state_fips": "08",
            "county_fips": "08031",
            "tract_code": "000201",
            "block_code": "2009",
            "block_group": "2",
            "full_fips": "080310002012009",
            "place": {
              "name": "Denver",
              "fips": "0820000"
            },
            "metro_micro_statistical_area": {
              "name": "Denver-Aurora-Broomfield, CO",
              "area_code": "19740",
              "type": "metropolitan"
            },
            "combined_statistical_area": {
              "name": "Denver-Aurora-Boulder, CO",
              "area_code": "08216"
            },
            "metropolitan_division": null,
            "source": "US Census Bureau"
          }
        }
      }
    },
    {
      "address_components": {
        "number": "4986",
        "predirectional": "N",
        "street": "Zuni",
        "suffix": "St",
        "formatted_street": "N Zuni St",
        "city": "Denver",
        "county": "Denver County",
        "state": "CO",
        "zip": "80221",
        "country": "US"
      },
      "formatted_address": "4986 N Zuni St, Denver, CO 80221",
      "location": {
        "lat": 39.787135,
        "lng": -105.015507
      },
      "accuracy": 0.9,
      "accuracy_type": "rooftop",
      "source": "Statewide CO",
      "fields": {
        "census": {
          "2010": {
            "census_year": 2010,
            "state_fips": "08",
            "county_fips": "08031",
            "tract_code": "000201",
            "block_code": "2009",
            "block_group": "2",
            "full_fips": "080310002012009",
            "place": {
              "name": "Denver",
              "fips": "0820000"
            },
            "metro_micro_statistical_area": {
              "name": "Denver-Aurora-Broomfield, CO",
              "area_code": "19740",
              "type": "metropolitan"
            },
            "combined_statistical_area": {
              "name": "Denver-Aurora-Boulder, CO",
              "area_code": "08216"
            },
            "metropolitan_division": null,
            "source": "US Census Bureau"
          }
        }
      }
    },
    {
      "address_components": {
        "number": "4986",
        "street": "Zuni",
        "suffix": "St",
        "formatted_street": "Zuni St",
        "city": "Denver",
        "county": "Denver County",
        "state": "CO",
        "zip": "80221",
        "country": "US"
      },
      "formatted_address": "4986 Zuni St, Denver, CO 80221",
      "location": {
        "lat": 39.787192,
        "lng": -105.015986
      },
      "accuracy": 0.9,
      "accuracy_type": "range_interpolation",
      "source": "TIGER/Line® dataset from the US Census Bureau",
      "fields": {
        "census": {
          "2010": {
            "census_year": 2010,
            "state_fips": "08",
            "county_fips": "08031",
            "tract_code": "000201",
            "block_code": "1013",
            "block_group": "1",
            "full_fips": "080310002011013",
            "place": {
              "name": "Denver",
              "fips": "0820000"
            },
            "metro_micro_statistical_area": {
              "name": "Denver-Aurora-Broomfield, CO",
              "area_code": "19740",
              "type": "metropolitan"
            },
            "combined_statistical_area": {
              "name": "Denver-Aurora-Boulder, CO",
              "area_code": "08216"
            },
            "metropolitan_division": null,
            "source": "US Census Bureau"
          }
        }
      }
    }
  ]
}
